{
    "stations": [
        {
            "id": "1",
            "name": "Downtown Mall Charger",
            "geocode": {
                "lat": 59.437,
                "lng": 24.7536
            },
            "address": "Metro Plaza, Viru v채ljak 2, 10111 Tallinn, Estonia",
            "status": "available",
            "power_rating": 50
        },
        {
            "id": "2",
            "name": "Airport Terminal A",
            "geocode": {
                "lat": 59.4133,
                "lng": 24.8328
            },
            "address":"Tallinn Airport, Tartu mnt 101, 10112 Tallinn, Estonia",
            "status": "occupied",
            "power_rating": 150
        },
        {
            "id": "3",
            "name": "Supermarket Plaza",
            "geocode": {
                "lat": 59.4269,
                "lng": 24.7271
            },
            "address":"Tehnika 75, 10142 Tallinn, Estonia",
            "status": "available",
            "power_rating": 22
        },
        {
            "id": "4",
            "name": "Business Center North",
            "geocode": {
                "lat": 59.4389,
                "lng": 24.7545
            },
            "address":"Mere pst 6, 10111 Tallinn, Estonia",
            "status": "out_of_service",
            "power_rating": 75
        },
        {
            "id": "5",
            "name": "Hotel Grand Charging",
            "geocode": {
                "lat": 59.4311,
                "lng": 24.7456
            },
            "address": "P채rnu highway 25, 10141 Tallinn, Estonia",
            "status": "available",
            "power_rating": 100
        },
        {
            "id": "6",
            "name": "University Campus East",
            "geocode": {
                "lat": 59.395,
                "lng": 24.6714
            },
            "address": "Tallinna Tehnika체likool, Ehitajate tee 5, 19086 Tallinn, Estonia",
            "status": "occupied",
            "power_rating": 22
        },
        {
            "id": "7",
            "name": "Sports Complex Charger",
            "geocode": {
                "lat": 59.4175,
                "lng": 24.7947
            },
            "address":"Tartu mnt, 11101 Tallinn, Estonia",
            "status": "available",
            "power_rating": 50
        },
        {
            "id": "8",
            "name": "Residential Area South",
            "geocode": {
                "lat": 59.4089,
                "lng": 24.7234
            },
            "address":"Kotka Hall, Linnu tee 5, 11311 Tallinn, Estonia",
            "status": "available",
            "power_rating": 11
        },
        {
            "id": "9",
            "name": "Industrial Park Charger",
            "geocode": {
                "lat": 59.4508,
                "lng": 24.8243
            },
            "address":"Panga, 12011 Tallinn, Estonia",
            "status": "out_of_service",
            "power_rating": 200
        },
        {
            "id": "10",
            "name": "Beach Resort Charger",
            "geocode": {
                "lat": 59.3834,
                "lng": 24.6123
            },
            "address": "T채hetorni, 13525 Tallinn, Estonia",
            "status": "available",
            "power_rating": 75
        }
    ],
  
  "charging_session":{
    "ongoing_rate": 21.45,
    "session": "active"
  }  
}    
